place_id,name,address,latitude,longitude,rating,user_ratings_total,business_status,types,formatted_phone_number,website,has_ads,ads_confidence,search_query
ChIJW5rZZAO6yhQRBtkbbji1Z9o,Fener Antik Mezat,"Yavuz Sultan Selim, Yıldırım Cd. No:13, 34087 Fatih/İstanbul, Türkiye",41.0298053,28.9512713,4.2,108,OPERATIONAL,"establishment, home_goods_store, point_of_interest, store",0532 587 77 49,,True,high,antique shop
ChIJ1cMRxTm6yhQRgdXvQMmbo8Q,Gallery Antıque,"Binbirdirek, Divan Yolu Cd. No:17, 34805 Fatih/İstanbul, Türkiye",41.00804979999999,28.9738551,2.7,46,OPERATIONAL,"establishment, home_goods_store, point_of_interest, store",(0212) 516 19 30,,False,low,antique shop
ChIJpQy0mSe6yhQRh0lRTzlRAGA,Horhor Antikacılar Çarşısı,"İskenderpaşa, Kırma Tulumba Sk. No:1, 34080 Fatih/İstanbul, Türkiye",41.0129707,28.9516428,4.2,276,OPERATIONAL,"establishment, home_goods_store, point_of_interest, store",,,True,high,antique shop
ChIJ52nqIae8yhQR5aV8mlSZmQs,Berol Antik,"Firuzağa, Çukur Cuma Cd. No:44 D:2, 34425 Beyoğlu/İstanbul, Türkiye",41.0316771,28.9806146,4.9,39,OPERATIONAL,"establishment, furniture_store, home_goods_store, point_of_interest, store",0533 478 72 25,http://www.berolantik.com/,True,medium,antique shop
ChIJ4cR2egO6yhQR6zgmVtQz9SQ,Mekan Antik İstanbul,"Bahçeşehir 1. KISIM MAH. DOĞA PARKI CAD. A BLOK NO: 13 -15AF, 34488 Başakşehir, Bahçeşehir 1. Kısım, 34488 Bahçeşehir/İstanbul, Türkiye",41.0663956,28.694065,4.7,53,OPERATIONAL,"establishment, home_goods_store, point_of_interest, store",0536 613 36 95,http://www.mekanantik.com/,True,high,antique shop
ChIJWVbIxmG3yhQRmKSWcvcQY5s,Osmanlı Antik Palas,"Kuluğlu No:26/A-/A No:30, Kuloğlu, Faik Paşa Cd., 34433 Beyoğlu/İstanbul, Türkiye",41.0320191,28.9802931,3.8,18,OPERATIONAL,"establishment, home_goods_store, point_of_interest, store",0532 611 09 18,https://instagram.com/osmanliantikpalas,True,low,antique shop
ChIJdelfP2a3yhQR_GycKRtiBJw,arşivCompany Vintage Dept.,"Bülbül, Turan Cd. No:92, 34435 Beyoğlu/İstanbul, Türkiye",41.0391088,28.9802725,4.7,56,OPERATIONAL,"establishment, furniture_store, home_goods_store, point_of_interest, store",0553 854 35 50,https://www.arsivcompany.com/,True,high,antique shop
ChIJKdNneGG3yhQRBDUnerWm2a0,A La Turca Kilim Shop,"Kuloğlu, Faik Paşa Cd. No:4, 34433 Beyoğlu/İstanbul, Türkiye",41.0330096,28.9813418,4.4,26,OPERATIONAL,"establishment, furniture_store, home_goods_store, point_of_interest, store",(0212) 245 29 33,http://www.alaturcahouse.com/,True,medium,antique shop
ChIJja9S2cK5yhQR4aXTNVMY3xg,Antika Çarşısı ( Büyük Çarşı ),"Kadı Mehmet, Efendi Mah, Kasımpaşa, Kulaksız Cd. No.5, 34000 Beyoğlu/İstanbul, Türkiye",41.03426899999999,28.965348,4.1,48,OPERATIONAL,"establishment, home_goods_store, point_of_interest, store",0537 417 62 12,,True,medium,antique shop
ChIJf8vNlVS5yhQRguENnZYtzYU,AntikAcı,"Firuzağa, Çukur Cuma Cd. No:19/A, 34000 Beyoğlu/İstanbul, Türkiye",41.03104200000001,28.979733,3.4,76,OPERATIONAL,"establishment, home_goods_store, point_of_interest, store",0546 748 74 03,,True,low,antique shop
ChIJm2AG3hy3yhQRUOos0Js3aFk,Kuzgun Antik,"10, Merkez, Reha Yurdakul Sk., 34381 Şişli/İstanbul, Türkiye",41.06371559999999,28.986374,5.0,8,OPERATIONAL,"establishment, home_goods_store, point_of_interest, store",0531 305 80 94,,False,low,antique shop
ChIJXbWPaee5yhQR1yayHZ_C1Lo,El Dorado Galata Interior Design & Vintage Store,"Şahkulu, Serdar-ı Ekrem Cd. No: 9, 34420 Beyoğlu/İstanbul, Türkiye",41.026612,28.975132,4.7,43,OPERATIONAL,"establishment, home_goods_store, point_of_interest, store",0555 072 55 00,http://www.eldoradogalata.com/,True,medium,antique shop
ChIJ-RA1pfe7yhQRgKIGpcFeHdo,Kafka Antik,"Ayvansaray Mh, Balat, Hızır Çavuş Köprübaşı Sk. No:80, 34087 Fatih/İstanbul, Türkiye",41.0331038,28.9467252,4.5,13,OPERATIONAL,"establishment, home_goods_store, point_of_interest, store",0532 351 39 89,,True,low,antique shop
ChIJN9yE2Wm3yhQRH5EHUKdSeTE,Yaz Vintage,"Yaz Vintage, H. Edip Adıvar, Halide Edip Adıvar Cd. No:72, 34382 Şişli/İstanbul, Türkiye",41.059945,28.9737688,4.8,23,OPERATIONAL,"establishment, home_goods_store, point_of_interest, store",0535 333 10 81,https://shopier.com/yazsanat,True,medium,antique shop
ChIJHyWtC3-3yhQRfMkx9D_G2ZU,Bozbey Antique,"Kuloğlu, Faik Paşa Cd. No:25/A, 34421 Beyoğlu/İstanbul, Türkiye",41.0325513,28.9809665,4.6,16,OPERATIONAL,"establishment, home_goods_store, point_of_interest, store",0534 641 10 10,,True,low,antique shop
ChIJoZEZdN25yhQRdmZq9-Cv75c,Oldie's Goldie's,"Karaköy Mah, Serçe Sk. No:6, 34425 Beyoğlu/İstanbul, Türkiye",41.02456470000001,28.9772813,5.0,19,OPERATIONAL,"establishment, home_goods_store, point_of_interest, store",(0212) 243 00 07,,True,low,antique shop
ChIJGXDdBCy7yhQRxejK4e2_DC4,Sayah home,"Akşemsettin, Hırka-i Şerif Cd. no 4, 34080 Fatih/İstanbul, Türkiye",41.021284,28.945315,5.0,8,OPERATIONAL,"establishment, home_goods_store, point_of_interest, store",(0212) 524 81 35,,False,low,antique shop
ChIJixS1it25yhQRlDcNEkpV5oE,Galata Antiques,"Müeyyetzade, Ali Hoca Ar. No:4, 34425 Beyoğlu/İstanbul, Türkiye",41.0262367,28.9762365,5.0,2,OPERATIONAL,"establishment, home_goods_store, point_of_interest, store",0533 460 14 19,,False,low,antique shop
ChIJr2eJQeu5yhQRyPu-9k9qaLU,OZER Jewelry & Antiques,"Rüstem Paşa Mahallesi, Mısır Çarşısı No :82, Rüstem Paşa, 34116 Fatih/İstanbul, Türkiye",41.0158801,28.9714384,4.3,44,OPERATIONAL,"establishment, home_goods_store, jewelry_store, point_of_interest, store",0538 482 50 50,,True,medium,antique shop
ChIJwQ4LDr25yhQR0s7Ix5MAez4,Capadocıa,"Sultan Ahmet, Kabasakal Cd. Arasta Bazaar D:26, 34122 Fatih/İstanbul, Türkiye",41.0055514,28.9779863,4.6,148,OPERATIONAL,"establishment, home_goods_store, point_of_interest, store",0532 322 21 74,,True,high,antique shop
ChIJiy80PJG5yhQRaI4EbQpRMlw,Coşar Silver - Wholesale,"Molla Fenari, Bileyciler Sk. No:7, 34120 Fatih/İstanbul - Avrupa, Türkiye",41.00957289999999,28.9693707,4.8,24,OPERATIONAL,"establishment, jewelry_store, point_of_interest, store",(0212) 526 11 56,http://www.cosarsilver.com/,True,medium,silver dealer
ChIJ6Z_MEJG5yhQReCzLa1zrkJc,Silver Jewelry Shop,"Molla Fenari, Kürkçüler Pazarı Sk. No: 6A, 34080 Fatih/İstanbul, Türkiye",41.008858,28.9695322,4.1,22,OPERATIONAL,"establishment, jewelry_store, point_of_interest, store",0538 834 90 80,https://www.ravzasilver.com/,True,medium,silver dealer
ChIJYaLf-XalyhQR52gq3cRYRxk,SİLVER MOTORS,"100.Yıl Mahallesi OtoCenter Galericiler Sitesi 2258.Sokak E Blok No:1, 100. Yıl, 34218 Bağcılar/İstanbul, Türkiye",41.0648545,28.8493657,4.7,17,OPERATIONAL,"car_dealer, establishment, point_of_interest, store",0532 277 75 97,http://silvermotors.sahibinden.com.tr/,True,low,silver dealer
ChIJX2fnt5O5yhQRmW09fGCvs1Y,Silver Group,"Beyazıt Mah., Tığcılar Sk. Pastırmacılar Han No:43, 34116 Fatih/İstanbul, Türkiye",41.0116172,28.9686412,4.9,15,OPERATIONAL,"establishment, home_goods_store, jewelry_store, point_of_interest, store",0534 251 27 70,https://silvergroupistanbul.com/,True,low,silver dealer
ChIJff4h-2-hyhQRDlrKda9Msg0,coinusmint,"Balıkyolu, 530. Sk., 34150 Esenyurt/İstanbul, Türkiye",41.0319478,28.6906643,0.0,0,OPERATIONAL,"establishment, point_of_interest, store",,https://coinusmint.com/,False,low,silver dealer
ChIJO9fVL5G5yhQRTZyHQI7lw98,Blue Silver Collection,"Molla Fenari, Atik Alipaşa Camii Sokak Kasap Han D:4-1, 34120 Fatih/İstanbul, Türkiye",41.0089645,28.9700193,4.4,5,OPERATIONAL,"establishment, jewelry_store, point_of_interest, store",(0212) 514 95 69,,False,low,silver dealer
ChIJtxcBP2a4yhQRSecu3u8EDSE,Silver World,"Osmanağa, Sakız Sk. 15B D:C, 34714 Kadıköy/İstanbul, Türkiye",40.9893264,29.0268156,5.0,7,OPERATIONAL,"establishment, home_goods_store, jewelry_store, point_of_interest, store",0544 893 56 80,,False,low,silver dealer
ChIJFZeTlpW5yhQR4zZq9Os7xCU,Elit Silver,"Molla Fenari, Mesih Mehmet Paşa Sokak, Çemberlitaş Kısmet İş Hanı 3/C, 34126 Fatih/İstanbul, Türkiye",41.0092653,28.9697607,4.6,14,OPERATIONAL,"establishment, jewelry_store, point_of_interest, store",(0212) 527 67 50,,True,low,silver dealer
ChIJS7hnmBi5yhQRDdH8wMBabSA,Cbr Silver,"Molla Fenari Mahallesi Kürkçüler Pazarı Sokak Sezgin İş Merkezi, Molla Fenari, Kürkçüler Pazarı Sk. Çemberlitaş No:19/11 No:19/11, 34120 Fatih/İstanbul, Türkiye",41.0092004,28.9694325,5.0,2,OPERATIONAL,"establishment, finance, jewelry_store, point_of_interest, store",0546 490 13 63,http://wwww.cbrsilver.com/,False,low,silver dealer
ChIJIWNyNu-5yhQROLZv6fVjZkw,Silver to Buy,"Osmanağa Mahallesi Kuşdili caddesi, Toraman İş Hanı, Osmanağa, No:43/35, 34714 Kadıköy/İstanbul, Türkiye",40.9895747,29.0320276,0.0,0,OPERATIONAL,"establishment, jewelry_store, point_of_interest, store",0533 651 64 94,http://www.hayalsihirbazi.com/,False,low,silver dealer
ChIJ2XiNGJG5yhQRnZXcSOb22Qc,Modna Silver,"Molla Fenari, Kürkçüler Pazarı Sk. No:4A, 34120 Fatih/İstanbul, Türkiye",41.0087031,28.96948,5.0,12,OPERATIONAL,"establishment, jewelry_store, point_of_interest, store",(0212) 526 89 46,,True,low,silver dealer
ChIJxeljNJS5yhQRuOaDQUgm5_c,Genç Altın - GMR - Merkez,"Molla Fenari, Şeref Efendi Sk. No:12, 34120 Fatih/İstanbul, Türkiye",41.01065970000001,28.9730419,4.8,333,OPERATIONAL,"establishment, point_of_interest",(0212) 514 47 61,http://gencaltin.com/,True,high,silver dealer
ChIJb7RAr4GkyhQROLirNoewZJg,İstanbul Altın Rafinerisi,"1, Yenibosna Merkez, 6. SK. Kuyumcukent Sitesi Atölyeler Bloğu No:4, 34197 Yenibosna/Bahçelievler/İstanbul, Türkiye",41.003447,28.816623,3.5,47,OPERATIONAL,"establishment, finance, point_of_interest, store",(0212) 603 01 01,,True,medium,silver dealer
ChIJtx7UP-e5yhQRR33X58RxjcQ,Pacific Silver,"Şahkulu, Galip Dede Cd. No:77, 34421 Beyoğlu/İstanbul, Türkiye",41.0267264,28.97455,4.8,17,OPERATIONAL,"establishment, jewelry_store, point_of_interest, store",,,True,low,silver dealer
ChIJBdfH95m5yhQR7Y4lFae8xzQ,Özcan Silver,"Molla Fenari, Kürkçüler Pazarı Sk. No: 4C, 34093 Fatih/İstanbul, Türkiye",41.00918739999999,28.9695459,4.8,15,OPERATIONAL,"establishment, jewelry_store, point_of_interest, store",(0212) 522 36 00,http://www.ozcansilver.com/,True,low,silver dealer
ChIJV4E8_5C5yhQRZKPIWw87WVg,Theia Silver Jewelry,"Mimar Hayrettin Mahallesi, Gedikpaşa Caddesi Ömür Pasaji 3/315, Mimar Hayrettin, 34126 Fatih/İstanbul, Türkiye",41.0085422,28.9674897,4.6,16,OPERATIONAL,"establishment, jewelry_store, point_of_interest, store",0536 352 27 30,https://www.theiasilver.com/,True,low,silver dealer
ChIJHzbySJC5yhQRwg-jERK_aWA,Atlantik Silver,"3 B, Mimar Hayrettin, Tiyatro Cd., 34126 Fatih/İstanbul, Türkiye",41.0087877,28.96617699999999,4.3,8,OPERATIONAL,"establishment, jewelry_store, point_of_interest, store",(0212) 516 72 43,http://www.atlantiksilver.com/,False,low,silver dealer
ChIJFWQQUqmgyhQReLSdl0PEtAo,KUZEY SAATÇİM VE GÜMÜŞ,"Fatih, Bahçe Yolu Cd. Eskonak Evleri No:16 No :4, 34510 Esenyurt/İstanbul, Türkiye",41.0336714,28.678782,4.4,130,OPERATIONAL,"establishment, jewelry_store, point_of_interest, store",(0212) 699 95 93,https://www.facebook.com/kuzeysaatcim,True,high,silver dealer
ChIJ2_sfnrKhyhQRMfPOfwyRihM,Diamante Silvers,"Merkez, Şamlı Sk. No:27, 34310 Avcılar/İstanbul, Türkiye",40.980898,28.721533,3.9,18,OPERATIONAL,"establishment, jewelry_store, point_of_interest, store",0530 747 74 25,,True,low,silver dealer
ChIJ2UY1MZG5yhQRMli2ZrCbAfE,Kvs Silver,"Molla Fenari, Mesih Mehmet Paşa Sk. No:6, 34120 Fatih/İstanbul, Türkiye",41.009166,28.969825,5.0,3,OPERATIONAL,"establishment, jewelry_store, point_of_interest, store",(0212) 513 00 86,,False,low,silver dealer
ChIJ0Ut7e2S3yhQR4dorOqSadgQ,Antikacı Arif,"Kapalı çarşı, Mimar Sinan, Selam-ı Ali Efendi Cd. No:22, 34660 Üsküdar/İstanbul, Türkiye",41.0243734,29.0178707,4.9,58,OPERATIONAL,"establishment, furniture_store, home_goods_store, point_of_interest, store",0532 426 71 98,http://antikacilar.xyz/,True,high,antique furniture
ChIJtQo92KikyhQRr3f0aDjjQD8,Istanbul spot,"Şirinevler, Fetih Cd. No:75, 34500 Bahçelievler/İstanbul, Türkiye",40.996187,28.8508761,4.2,107,OPERATIONAL,"electronics_store, establishment, furniture_store, home_goods_store, point_of_interest, store",0533 637 27 29,,True,high,antique furniture
ChIJvZO6qnO5yhQRoii8iLp0fI8,Palmyra Oriental,"Alemdar, Prof. Kazım İsmail Gürkan Cd. No:18, 34110 Fatih/İstanbul, Türkiye",41.0104089,28.97566669999999,4.8,21,OPERATIONAL,"establishment, furniture_store, home_goods_store, point_of_interest, store",0552 511 55 00,http://www.palmyraoriental.com/,True,medium,antique furniture
ChIJ67-l5i-5yhQRraht8-aW8BQ,"ANTİKALARINIZ, ESKİ EŞYALARINIZ, GÜMÜŞLERİNİZ, KIYAFETLERİNİZ ALINIR- ÖNCELANTİKA","Valide-i Atik, Eski Toptaşı Cd. No:83, 34664 Üsküdar/İstanbul, Türkiye",41.018241,29.0219727,5.0,84,OPERATIONAL,"establishment, furniture_store, home_goods_store, point_of_interest, store",0553 902 39 51,https://www.facebook.com/profile.php?id=100010202013146,True,high,antique furniture
ChIJO1EoQgm3yhQRxMovF_zY2yY,Fairytale,"Teşvikiye, Nişantaşı Ihlamur Yolu Sk. No:17 D:1C, 34365 Şişli/İstanbul, Türkiye",41.0509285,28.99492429999999,3.8,13,OPERATIONAL,"establishment, furniture_store, home_goods_store, point_of_interest, store",(0212) 232 00 32,https://www.fairytaleistanbul.com/,True,low,antique furniture
ChIJmReowFi7yhQRtT9UEUNNUlY,Yaşar antik antigue,"Kartaltepe Terakki Cad, Kartaltepe, Behire Sokağı No:2 D:2, 34145 Bakırköy/İstanbul, Türkiye",40.9830922,28.8759187,4.4,15,OPERATIONAL,"establishment, furniture_store, home_goods_store, point_of_interest, store",(0212) 570 26 88,,True,low,antique furniture
ChIJg0d9jmW4yhQR-3Lm5cviwCo,Berberoğlu Ahşap Mobilya İmalat ve Antika,"Bahariye Cad. Süleymanpaşa Sok. No:39/A, Osmanağa, 34714 Kadıköy/İstanbul, Türkiye",40.9888701,29.0304629,4.8,5,OPERATIONAL,"establishment, furniture_store, home_goods_store, point_of_interest, store",(0216) 348 31 41,,False,low,antique furniture
ChIJj78NmtS7yhQR91dVa-6fBNc,osmaniye spot ve ikinci el,"Osmaniye, Kireç Ocağı Sk. 4 a, 34000 Bakırköy/İstanbul, Türkiye",40.9946033,28.882765,5.0,33,OPERATIONAL,"establishment, furniture_store, home_goods_store, point_of_interest, store",0552 869 28 66,,True,medium,antique furniture
ChIJD6AbGXbHyhQRqn8MCbQ2Kcw,Antika alanlar Caddebostan,"Caddebostan, Bağdat Cad. No:251, 34728 Kadıköy/İstanbul, Türkiye",40.97064109999999,29.0620314,5.0,3,OPERATIONAL,"establishment, furniture_store, home_goods_store, point_of_interest, store",,,False,low,antique furniture
ChIJqd7TshW7yhQR_K_Q7RI7kRo,MÜKEMEL,"Akşemsettin, Sarıgüzel Cd. No:34/1, 34080 Fatih/İstanbul, Türkiye",41.0178732,28.9471877,4.9,30,OPERATIONAL,"establishment, furniture_store, home_goods_store, point_of_interest, store",0536 504 91 19,https://mukemel.com/,True,medium,antique furniture
ChIJZeYNzQu3yhQRcb7RexSqLO4,Antique Room,"Teşvikiye, Muradiye Bayırı Sok. NO:58/3, 34000 Beşiktaş/İstanbul, Türkiye",41.0490318,28.9965688,4.0,1,OPERATIONAL,"establishment, home_goods_store, point_of_interest, store",0533 483 82 50,https://uxinteriors.com/,False,low,antique furniture
ChIJi_Rqu8m3yhQRkyXogjTr858,Antika Eskici Ortaköy,"Ortaköy, Büyükşekerci Sk. No:29/A, 34347 Beşiktaş/İstanbul, Türkiye",41.0489614,29.0248151,4.8,56,OPERATIONAL,"establishment, furniture_store, home_goods_store, point_of_interest, store",0532 221 90 46,,True,high,antique furniture
ChIJN0ooPyG4yhQRgyEHvETtld0,Exist Silver,"Necatibey Caddesi. Baş Cerrah sokak. no:2A Kemankeş Karamustafapaşa Mahallesi Necatibey Caddesi, Kemankeş Karamustafa Paşa, Baş Cerrah Sk. no:2A, 03465 Beyoğlu/İstanbul, Türkiye",41.024717,28.978078,4.5,15,OPERATIONAL,"establishment, jewelry_store, point_of_interest, store",0505 087 03 77,http://www.existsilver.com/,True,low,silver jewelry
ChIJY3U3vUpftRQRrjsSAK_kvPg,"ARPAS Gold And Silver Jewelry Manufacturing, Export, Import","Selahaddin Eyyubi Mah. Büyük Ayazma Cad. N0:78, Selahaddin Eyyubi, D:80, 34517 Esenyurt/İstanbul, Türkiye",41.0463751,28.6514086,4.7,116,OPERATIONAL,"establishment, jewelry_store, point_of_interest, store",(0212) 557 91 20,http://www.arpas.com.tr/,True,high,silver jewelry
ChIJiZSY4ZC5yhQR2fkfmtx-pOE,Şile Silver,"Mimar Hayrettin, Abidin Daver Sk. Özsoy İş Merkezi No:12/39, 34126 Fatih/İstanbul, Türkiye",41.0081236,28.9684984,4.7,41,OPERATIONAL,"establishment, jewelry_store, point_of_interest, store",(0212) 517 69 45,https://www.silesilver.com/,True,medium,silver jewelry
ChIJWXULrYi5yhQRNLuz-r1Gxms,Fatih Mert Erdogan Jewellery - LAL by Zeytin - FTH Jewelry,"Hacımimi, Kumbaracı Ykş. 9a, 34425 Beyoğlu/İstanbul, Türkiye",41.0272704,28.97813589999999,4.9,28,OPERATIONAL,"establishment, jewelry_store, point_of_interest, store",0532 632 67 95,http://www.fthjewelry.com/,True,medium,silver jewelry
ChIJL1ANO5G5yhQRFxFSccZxyDo,Akgün Silver,"Mollafenari Mahallesi Yeniçeriler Cad, Molla Fenari, Kürkçüler Pazarı Sk. No:17, 34120 Fatih/İstanbul, Türkiye",41.0091045,28.9694211,4.8,24,OPERATIONAL,"establishment, jewelry_store, point_of_interest, store",(0212) 512 57 47,http://www.akgunsilver.com/,True,medium,silver jewelry
ChIJB7Zcxt25yhQRGRQsToCu9e8,Manuk's Workshop,"Hacımimi, Lüleci Hendek Cd. 30/A, 34425 Beyoğlu/İstanbul, Türkiye",41.0263274,28.9773561,4.9,96,OPERATIONAL,"establishment, jewelry_store, point_of_interest, store",0542 527 84 79,http://www.manuksworkshop.com/,True,high,silver jewelry
ChIJbZdA_pC5yhQRf2AOhiFWrOw,TALAY SILVER,"Mimar Kemalettin, Yeniçeriler Cd. No:69, 34126 Fatih/İstanbul, Türkiye",41.009088,28.9653337,4.4,112,OPERATIONAL,"establishment, jewelry_store, point_of_interest, store",0505 958 97 75,http://www.talaysilver.com.tr/,True,high,silver jewelry
ChIJ6xWPFJG5yhQRcu6v336aHi0,Mercan Silver,"Hobyar Mah. Ankara Cad, Hobyar, Cağaloğlu Ykş. Evren Han Kat: 4 No: 63, 34112 Fatih/İstanbul, Türkiye",41.0127911,28.97494979999999,4.8,187,OPERATIONAL,"establishment, jewelry_store, point_of_interest, store",0543 811 03 17,http://mercanjewelry.com/,True,high,silver jewelry
ChIJib3ZPpG5yhQRrMDB_66lhWE,Fancy Silver Stone,"MAHALLESİ, Emin Sinan, Yeniçeriler Cd. GÜZEL APT NO 5 KAT 2, 34126 Fatih/İstanbul, Türkiye",41.0083516,28.9706799,4.5,8,OPERATIONAL,"establishment, jewelry_store, point_of_interest, store",(0212) 528 61 52,http://www.fancysilvertr.com/,False,low,silver jewelry
ChIJZcruOpG5yhQRLWmFs0tDAKk,PETEK GÜMÜŞ ERKEK YÜZÜK KOLYE ALYANS TOPTAN SATIŞI VE İMALATI,"Molla Fenari, Kürkçüler Pazarı Sk. No:15, 34120 Fatih/İstanbul, Türkiye",41.0090276,28.9695724,4.9,73,OPERATIONAL,"establishment, jewelry_store, point_of_interest, store",0533 592 04 27,http://www.peteksilver.com/,True,high,silver jewelry
ChIJtzHyEmS2yhQROz7KwtW0Kss,CNG JEWELS - ÖZDİLEKPARK AVM,"ÖzdilekPark İstanbul, Esentepe, Eski Büyükdere Cd. No:181, 34394 Şişli/İstanbul, Türkiye",41.07738519999999,29.01175529999999,4.5,31,OPERATIONAL,"establishment, jewelry_store, point_of_interest, store",0555 961 08 05,https://www.cngjewels.com/,True,medium,silver jewelry
ChIJiTckY1e5yhQR-5tHyFIvTUA,Murat Silver Original,"Mollafenari Mah. Bileyciler Sok. No:6 Çemberlitaş, Molla Fenari, 34120 Fatih/İstanbul, Türkiye",41.0096338,28.9693265,4.7,20,OPERATIONAL,"establishment, jewelry_store, point_of_interest, store",(0212) 519 04 10,,True,medium,silver jewelry
ChIJUZuK39-5yhQRd6i3KUR2OGk,Else Silver,"Mimar Hayrettin, Gedik Paşa Cd. Güzelyuva Apartmanı No:11 Daire:2, 34126 Fatih/İstanbul, Türkiye",41.00805810000001,28.96739269999999,4.7,221,OPERATIONAL,"establishment, jewelry_store, point_of_interest, store",0850 307 0161,http://www.elsesilver.com/,True,high,silver jewelry
ChIJvStj05O5yhQRv8mZcWYvCTo,Oriental Kuyumculuk Jewellery,"Yağlıkçılar Cad. No:65-67 (Örücüler Kapısı 14) Beyazıt - Kapalıçarşı, İstanbul, Beyazıt, 34126 Fatih/İstanbul, Türkiye",41.0114747,28.9675891,4.5,30,OPERATIONAL,"establishment, jewelry_store, point_of_interest, store",,http://instagram.com/orientaljewels,True,medium,silver jewelry
ChIJNQAdYZG5yhQR7OVui0T34yQ,EG.Antiques,"Cevahir Bedesten 168, Beyazıt, 34130 Fatih Beyazit Mah. Kapali Carsi/Fatih/İstanbul, Türkiye",41.010745,28.968682,5.0,1,OPERATIONAL,"establishment, home_goods_store, point_of_interest, store",,,False,low,antique store
ChIJPedIJHTHyhQRppeEzr2YrKM,Suadiye Antika,"Caddebostan, Caddebostan Plaj Yolu Sk. No:7, 34728 Kadıköy/İstanbul, Türkiye",40.9677856,29.0639036,5.0,3,OPERATIONAL,"establishment, home_goods_store, point_of_interest, store",0532 170 90 01,,False,low,antique store
ChIJH4js6eahyhQRh8C5g2yBhxI,Home Antique Home,"Caddebostan, Sarıgül Sok No:1/1, 34728 Kadıköy/İstanbul, Türkiye",40.9700531,29.0597563,0.0,0,OPERATIONAL,"establishment, home_goods_store, point_of_interest, store",0555 737 09 33,http://homeantiquehome.com/,False,low,antique store
ChIJH4seYVW3yhQRrcHIcoU4IZQ,FERAYE antik,"Firuzağa mh çukurcuma CD, Firuzağa, Hacı Osman Çk. 2A, 34425 Beyoğlu/İstanbul, Türkiye",41.03112720000001,28.9800898,5.0,1,OPERATIONAL,"establishment, home_goods_store, point_of_interest, store",,https://sites.google.com/view/ferayeantik,False,low,antique store
ChIJ811Eig7HyhQRHiYiQooUaxo,Vintage Antique,"Suadiye, Hamiyet Yüceses Sk. 23/3, 34740 Kadıköy/İstanbul, Türkiye",40.9607914,29.0764853,0.0,0,OPERATIONAL,"establishment, home_goods_store, point_of_interest, store",0536 748 72 77,,False,low,antique store
ChIJEVc1d5G5yhQRRL3a2FucrCQ,Antique Objet,"Beyazıt, 34126 Fatih/İstanbul, Türkiye",41.0105194,28.9677785,4.0,1,OPERATIONAL,"establishment, home_goods_store, point_of_interest, store",(0212) 512 28 97,,False,low,antique store
ChIJF3ue62G3yhQRCCsVaBVPugc,Beşiktaş'lı Asım Antiques,"Firuzağa, Çukur Cuma Cd. No:48 D:B, 34425 Beyoğlu/İstanbul, Türkiye",41.0317853,28.980811,0.0,0,OPERATIONAL,"establishment, home_goods_store, point_of_interest, store",0536 234 16 91,,False,low,antique store
ChIJZVuZfWG3yhQR5KKuA6wmEI8,Can Antika,"Cihangir, Turnacıbaşı Cd. 46/A, 34433 Beyoğlu/İstanbul - Avrupa, Türkiye",41.0331718,28.9817213,0.0,0,OPERATIONAL,"establishment, home_goods_store, point_of_interest, store",(0212) 244 55 05,,False,low,antique store
ChIJDTiUs6a5yhQRlvoWhNzITQk,antique_50,"Caferağa, Sakız Sk. No:9 D:3, 34710 Kadıköy/İstanbul, Türkiye",40.9889699,29.0266795,5.0,2,OPERATIONAL,"establishment, home_goods_store, point_of_interest, store",0532 357 42 51,,False,low,antique store
ChIJ50ye22G3yhQRb7cjD4vLUcs,Yaşam Antique,"Firuzağa, Çukur Cuma Cd. No:31, 34425 Beyoğlu/İstanbul, Türkiye",41.0314095,28.9800748,4.6,15,OPERATIONAL,"establishment, home_goods_store, point_of_interest, store",0536 663 19 31,,True,low,antique store
ChIJ63OEhJG5yhQR5C1t1zL6c0Y,Murathan Antiques,"Beyazıt, Yorgancılar Cd. No: 34, 34126 Fatih/İstanbul, Türkiye",41.01098349999999,28.9669881,0.0,0,OPERATIONAL,"establishment, home_goods_store, point_of_interest, store",0507 560 76 30,,False,low,antique store
ChIJ10xDz2i5yhQRPB1W8rLyMaA,Pasha Antiques,"Binbirdirek, Avrupa Yakası, 34122 Fatih/İstanbul, Türkiye",41.0068111,28.9731394,5.0,3,OPERATIONAL,"establishment, home_goods_store, point_of_interest, store",,,False,low,antique store
ChIJ3UwJdBS3yhQRg7iBLGnklo0,Can antiques,"Avrupa pasajı, Hüseyinağa, Meşrutiyet Cd. avrupa pasajı no:8 iç kapı 7, 34421 Beyoğlu/İstanbul, Türkiye",41.0336979,28.9760912,5.0,1,OPERATIONAL,"establishment, home_goods_store, point_of_interest, store",0553 255 45 12,,False,low,antique store
ChIJw-C8Y-i5yhQR0iIjin1XnZQ,Metro Market İstanbul - Pendik,"Çamçeşme Mah, Üst, Kaynarca, Tersane Cd, 34725 Pendik/İstanbul, Türkiye",40.86690369999999,29.277927,4.1,6630,OPERATIONAL,"establishment, food, grocery_or_supermarket, point_of_interest, store, supermarket",(0216) 581 90 00,https://www.metro-tr.com/magazalar/pendik?utm_source=gmb&utm_medium=organic&utm_content=website&utm_term=pendik,True,high,silverware
ChIJFW9UGZG5yhQRnLci_pVjW84,İpekyolu Kuyumculuk,"Mollafenari Bileyciler Sokak, Molla Fenari, Çarşıkapı Cd No:23, 34120 Fatih/İstanbul, Türkiye",41.0091448,28.9690204,4.6,145,OPERATIONAL,"establishment, jewelry_store, point_of_interest, store",(0212) 513 73 83,https://ipekyolujewellery.com/,True,high,silverware
ChIJRXlvOE-2yhQRcHGQ-NqtwEc,Paşabahçe Mağazaları - Zorlu Center AVM,"Zorlu Center, Levazım, Koru Sk. No:2, 34340 Beşiktaş/İstanbul, Türkiye",41.0666406,29.0163833,4.6,221,OPERATIONAL,"establishment, home_goods_store, point_of_interest, store",0850 206 2250,https://www.pasabahcemagazalari.com/,True,high,silverware
ChIJcXw7tkS9yhQRlljw9vmg97A,Bakırköy Nostalji Gümüş ve Hediyelik Eşya,"Irmak pasajı, Yenimahalle, Hazırlık Sk. No:3, 34142 Bakırköy/İstanbul, Türkiye",40.9790661,28.8796492,5.0,1,OPERATIONAL,"establishment, point_of_interest, store",0532 487 01 81,,False,low,silverware
ChIJBag2N5O5yhQRsjRhWCW98LM,Şarkhan,"Tahtakale, Vasıf Çınar Cd. No: 17, 34116 Fatih/İstanbul, Türkiye",41.015133,28.9680649,4.2,7999,OPERATIONAL,"establishment, point_of_interest, store",,http://www.sarkhanonline.com/,True,high,silverware
ChIJL0aIa4GkyhQRVl8AnK2S5ss,Alex Makina Kuyumcu Malzemeleri,"Yenibosna Merkez Mah. Kuyumcular Sok İstanbul Vizyonpark Merkez Plaza C1 Blok No:23, Yenibosna Merkez, 34197 Bahçelievler/İstanbul, Türkiye",41.0046463,28.8173007,4.7,192,OPERATIONAL,"establishment, jewelry_store, point_of_interest, store",(0212) 458 17 03,https://www.alexmakina.com/,True,high,silverware
ChIJdzeqQKakyhQRSXNYPoQP8zc,Güzel Home,"Şirinevler, Kazım Karabekir Cd. 21/A, 34188 Bahçelievler/İstanbul, Türkiye",40.9966729,28.8462856,4.4,45,OPERATIONAL,"establishment, home_goods_store, point_of_interest, store",(0212) 654 75 18,https://guzelhome.com/,True,medium,silverware
ChIJA10ajBm7yhQRMILKXcUgT-M,Evmoda Home Express Zeytinburnu,"Gökalp, 58. Blv Cd No:37, 34020 Zeytinburnu/İstanbul, Türkiye",40.9918638,28.9039298,4.5,181,OPERATIONAL,"establishment, home_goods_store, point_of_interest, store",0850 532 5656,http://www.taspinar.com/,True,high,silverware
ChIJLx2D8Xq6yhQR_mLniIz5iT0,Metro Market İstanbul - Bayrampaşa,"Altıntepsi, Çiftlik Cd. No:11, 34045 Bayrampaşa/İstanbul, Türkiye",41.0424915,28.8885218,4.2,4420,OPERATIONAL,"establishment, food, grocery_or_supermarket, point_of_interest, store, supermarket",(0212) 443 08 00,https://www.metro-tr.com/magazalar/bayrampasa?utm_source=gmb&utm_medium=organic&utm_content=website&utm_term=bayrampasa,True,high,silverware
ChIJxzLp_fekyhQRECFrMRO-fAI,Metro Market İstanbul - Güneşli,"Güneşli, 15 Temmuz, Koçman Cd. No:52 D:52, 34212 Bağcılar/İstanbul, Türkiye",41.0297879,28.812834,4.1,6221,OPERATIONAL,"establishment, food, grocery_or_supermarket, point_of_interest, store, supermarket",(0212) 478 70 00,https://www.metro-tr.com/magazalar/gunesli?utm_source=gmb&utm_medium=organic&utm_content=website&utm_term=gunesli,True,high,silverware
ChIJTRLaWOq2yhQRPcac_5BWy7g,Metro Market İstanbul - Kağıthane,"Cendere Cad, Merkez, Ayazma Cad. No:51, 34700 Kağıthane/İstanbul, Türkiye",41.0837846,28.9830037,4.1,8658,OPERATIONAL,"establishment, food, grocery_or_supermarket, point_of_interest, store, supermarket",(0212) 312 05 00,https://www.metro-tr.com/magazalar/kagithane?utm_source=gmb&utm_medium=organic&utm_content=website&utm_term=kagithane,True,high,silverware
ChIJrxccYriryhQRPaRbElVNR5Y,Lale Sterling,"260 Cevahir Bedesten Cad, Beyazıt, 34126 Fatih/Avrupa, Türkiye",41.0106654,28.9682834,4.0,6,OPERATIONAL,"establishment, jewelry_store, point_of_interest, store",(0212) 522 46 00,,False,low,silverware
ChIJAdCgy5W5yhQRnXcIeqxbGCQ,Ariş Pırlanta Nuruosmaniye,"Mollafenari Mahallesi Nuruosmaniye Cad. &, Molla Fenari, Şeref Efendi Sk. No:27, 34110 Fatih/İstanbul, Türkiye",41.0105233,28.9733007,4.6,96,OPERATIONAL,"establishment, jewelry_store, point_of_interest, store",(0212) 528 88 00,https://www.arispirlanta.com/,True,high,silverware
ChIJEap9j2zEyhQR3mWeid4stSY,Paşabahçe Mağazaları - Maltepe Park AVM,"Park Avm, Cevizli, Tugay Yolu Cd. No: 67, 34846 Maltepe/İstanbul, Türkiye",40.9189119,29.1650684,4.4,746,OPERATIONAL,"establishment, home_goods_store, point_of_interest, store",0850 206 2260,https://www.pasabahcemagazalari.com/,True,high,silverware
ChIJ34QrkKO3yhQRgkoETyeBs2c,BAROK DİAMOND - Nişantaşı,"Teşvikiye, Teşvikiye Cd. No:16 A, 34381 Şişli/İstanbul, Türkiye",41.0512352,28.992319,5.0,204,OPERATIONAL,"establishment, jewelry_store, point_of_interest, store",(0212) 232 00 20,https://www.barokdiamond.com/,True,high,silverware
ChIJ-ZI2uTW6yhQRm7mYo4kJ04c,ALFA GÜMÜŞ TAKI & SAAT,"Seyyid Ömer, Vezir Cd. 28/A, 34098 Fatih/İstanbul, Türkiye",41.0104244,28.9313142,4.3,44,OPERATIONAL,"establishment, finance, jewelry_store, point_of_interest, store",0533 964 93 06,https://www.instagram.com/alfagumus/,True,medium,silverware
ChIJX4m12xO3yhQRR1HGvWSgptE,Karaca-Jumbo-Homend Smeg,"Duatepe, Ergenekon Cd. No:63, 34379 Şişli/İstanbul, Türkiye",41.0527124,28.98396079999999,3.0,57,OPERATIONAL,"establishment, home_goods_store, point_of_interest, store",(0212) 219 32 00,https://www.instagram.com/karacasisli/?ysclid=ln0eqoqqap155690483,True,low,silverware
ChIJmc4FqIi3yhQRw_y7ouRfddY,Karaca Ev Gereçleri Merkez Mağazası,"Fetihtepe, Fatih Sultan Minberi Cd. No:21, 34445 Beyoğlu/İstanbul, Türkiye",41.045292,28.958505,4.2,98,OPERATIONAL,"establishment, home_goods_store, point_of_interest, store",(0212) 235 67 34,https://www.instagram.com/karaca_beyoglu/,True,high,silverware
ChIJM3oJGN65yhQRHMx6AOPSyOg,Grandma Vintage Shop,"Kumbaracı İş Hanı, Şahkulu, Kumbaracı Ykş. D:57A, 34421 Beyoğlu/İstanbul, Türkiye",41.0286516,28.9763814,4.3,154,OPERATIONAL,"clothing_store, establishment, point_of_interest, store",0533 387 62 25,http://www.grandmavintageshop.com/,True,high,antique gallery
ChIJl4uSq6K5yhQRs-eGG579jjQ,A&D Gallery Antique and Decorative Rugs,"Sultan Ahmet, Mimar Mehmet Ağa Cd. No:10, 34122 Sultanahmet/İstanbul, Türkiye",41.0050932,28.9788178,4.5,13,OPERATIONAL,"art_gallery, establishment, home_goods_store, point_of_interest, store",(0212) 513 69 21,http://www.galleryaydin.com/,True,low,antique gallery
ChIJydrT3Le5yhQRf6FdN1-xzJQ,Khaftan Art & Antique,"Küçük Ayasofya, Nakilbent Sk. No:13, 34122 Fatih/İstanbul, Türkiye",41.00400399999999,28.9750119,3.5,4,OPERATIONAL,"art_gallery, book_store, establishment, home_goods_store, point_of_interest, store",(0212) 458 54 25,https://khaftan.com/,False,low,antique gallery
ChIJe1h4HN65yhQRjvRkZ5Dg-JI,Kashifsofa,"Serdar-ı Ekrem Caddesi, Şahkulu, Seraskerci Çk. No:2, 34440 Beyoğlu/İstanbul, Türkiye",41.0281008,28.97651239999999,4.9,14,OPERATIONAL,"art_gallery, establishment, home_goods_store, point_of_interest, store",0532 271 04 00,http://kashifsofa.com/,True,low,antique gallery
ChIJUzPZxOC5yhQRuBkYf2UeFLk,ARTRIUM ISTANBUL,"Şahkulu, Büyük Hendek Cd. No:46, 34421 Beyoğlu/İstanbul, Türkiye",41.0272485,28.9723701,3.7,19,OPERATIONAL,"establishment, home_goods_store, point_of_interest, store",(0212) 251 43 02,,True,low,antique gallery
ChIJA47Gt7i5yhQRXCI2fOF89NI,Tellalzade Antiques,"Caferağa, Sakız Sk. No:15-A, 34744 Kadıköy/İstanbul, Türkiye",40.98934,29.0268405,4.8,5,OPERATIONAL,"art_gallery, establishment, home_goods_store, point_of_interest, store",0530 911 07 24,http://www.tellalzadeantiques.com/,False,low,antique gallery
ChIJR_PmbpW5yhQRhLJZDSKCgmc,Geçit Art and More,"Hobyar, Ankara Cd. 11/A, 34112 Fatih/İstanbul, Türkiye",41.0118138,28.97525409999999,4.4,26,OPERATIONAL,"art_gallery, book_store, establishment, furniture_store, home_goods_store, point_of_interest, store",(0212) 526 07 01,,True,medium,antique gallery
ChIJ982-A9-5yhQRNKCSPW5ZUmk,Saffar,"Tomtom, Boğazkesen Cd. No:53 D:B, 34433 Beyoğlu/İstanbul, Türkiye",41.0290136,28.9795316,5.0,16,OPERATIONAL,"establishment, point_of_interest, store",0536 583 81 27,,True,low,antique gallery
ChIJl7V0HD-7yhQRBeIyFASqanc,The Nomad Inn Old City İstanbul,"Şehsuvar Bey, Kadırga Limanı Cd. NO:26, 34126 Fatih/İstanbul, Türkiye",41.0045608,28.9655775,5.0,7,OPERATIONAL,"establishment, home_goods_store, point_of_interest, store",0530 622 40 39,,False,low,antique gallery
ChIJzSda1jK3yhQR_vQA1GeWitk,İrdem Art Antik,"Cumhuriyet, Abide-i Hürriyet Cd No:3, 34380 Şişli/İstanbul, Türkiye",41.0531123,28.9838041,5.0,6,OPERATIONAL,"establishment, home_goods_store, point_of_interest, store",0534 263 19 63,,False,low,antique gallery
ChIJLf86m7ddtRQRdHarHclJPnA,Gold Store,"Alemdar, Salkım Söğüt Sk. No:5, 34110 Fatih/İstanbul, Türkiye",41.0096923,28.9773735,4.0,67,OPERATIONAL,"establishment, jewelry_store, point_of_interest, store",(0212) 527 77 40,http://www.goldstore.com.tr/,True,high,jewelry store
ChIJeYnMZZG5yhQRLFeeSj5ktek,GrandBazaarJewelers Wholesale Custom Jewelry Manufacturer of Turkish Ottoman Jewellery,"Guran Han, Alemdar, Bab-ı Ali Cd. No:34 D:4, 34110 Fatih/İstanbul, Türkiye",41.0105084,28.9744017,4.6,32,OPERATIONAL,"establishment, jewelry_store, point_of_interest, store",0551 150 24 56,http://www.grandbazaarjewelers.com/,True,medium,jewelry store
ChIJubzsc-C5yhQRN5zYaVuRdRM,Goldstore,"Tomtom, İstiklal Cd. No:205 No:205, 34433 Beyoğlu/İstanbul, Türkiye",41.0306423,28.9758151,4.1,46,OPERATIONAL,"establishment, jewelry_store, point_of_interest, store",(0212) 252 81 18,http://www.goldstore.com.tr/,True,medium,jewelry store
ChIJ9Tknjgu3yhQR8c6TQGr7bjY,Asayra Jewellery,"Teşvikiye, Teşvikiye Cd. Hak Pasajı No:41 Nişantaşı, 34365 Şişli/İstanbul, Türkiye",41.0513592,28.992074,4.3,11,OPERATIONAL,"establishment, jewelry_store, point_of_interest, store",(0212) 241 21 44,,True,low,jewelry store
ChIJi5onnzXJyhQRDRb0f2zfYCE,Aydınlar Gold & Jewellery Store,"Tantavi, Su İş Cd., 34800 Ümraniye/İstanbul, Türkiye",41.0269108,29.0860708,5.0,8,OPERATIONAL,"establishment, jewelry_store, point_of_interest, store",0505 941 34 81,http://aydinlar.gold/,False,low,jewelry store
ChIJjTG2H5G5yhQRSzWSiH_KTKU,Garden Gold,"YENİÇERİLER CAD. UĞUR HAN K:1 D:11-12, Molla Fenari, ÇEMBERLİTAŞ, 34130 Fatih/İstanbul, Türkiye",41.0090104,28.97002,4.9,31,OPERATIONAL,"establishment, jewelry_store, point_of_interest, store",(0212) 517 85 73,http://gardengold.com.tr/,True,medium,jewelry store
ChIJqSi02wvHyhQREhqDEbBUOyI,Hrn Diamond (Öz-Nur Kuyumculuk Ltd. Şti),"Bağdat Caddesi, Caddebostan, Köşk Sk. Tatari Ap No:1/A, 34728 Kadıköy/İstanbul, Türkiye",40.9642771,29.07405469999999,5.0,336,OPERATIONAL,"establishment, finance, jewelry_store, point_of_interest, store",(0216) 369 79 99,http://www.hrndiamond.com/,True,high,jewelry store
ChIJjfjN6SG6yhQR0m7vVZmScOA,Öz Fatih kuyumculuk,"Ali Kuşçu, İslambol Cd. No:19B, 34083 Fatih/İstanbul, Türkiye",41.0203782,28.9485044,4.7,233,OPERATIONAL,"establishment, finance, jewelry_store, point_of_interest, store",0553 563 79 02,https://www.fatihjewelry.com/,True,high,jewelry store
ChIJw7YnQpa5yhQRjK8vVT66A6A,Lois Diamond,"Binbirdirek, Işıltı Sk. No:2 Kat:3, 34122 Fatih/İstanbul, Türkiye",41.0080144,28.9743138,4.9,341,OPERATIONAL,"establishment, jewelry_store, point_of_interest, store",0553 381 80 20,http://www.loisdiamond.com/,True,high,jewelry store
ChIJuxatFD-5yhQRkkyig4NuZn4,The Brothers Jewellery,"Kapalıçarşı Cevahir Bedesten Cevahir, 65 Beyazıt, Bedesten Sk. No: 50, 34126 Fatih/İstanbul, Türkiye",41.01382090000001,29.1462621,5.0,30,OPERATIONAL,"establishment, jewelry_store, point_of_interest, store",0542 319 83 46,http://www.brothersjewellery.com/,True,medium,jewelry store
ChIJt9ypTG-4yhQRlDWmTL3I5Fc,ÖZALTIN KUYUMCULUK,"Osmanağa, Söğütlü Çeşme Cd No:55/1, 34714 Kadıköy/İstanbul, Türkiye",40.9907713,29.0286605,4.1,26,OPERATIONAL,"establishment, jewelry_store, point_of_interest, store",(0216) 346 02 31,https://www.facebook.com/ozaltinkuyumculuk/,True,medium,jewelry store
ChIJvZtuLh63yhQRxIRlwBwMcfs,Genç Kuyumculuk,"Mimar Sinan, Hakimiyeti Milliye Cd. No:20, 34672 Üsküdar/İstanbul, Türkiye",41.02420499999999,29.015493,4.1,136,OPERATIONAL,"establishment, jewelry_store, point_of_interest, store",(0216) 492 01 61,http://www.genckuyumculuk.com.tr/,True,high,jewelry store
ChIJeUp67me4yhQRPVCeZUzDnlw,MAYAMİRA AKSESUAR VE TAKI,"Caferağa, Muvakkıthane Cd. No:26, 34710 Kadıköy/İstanbul, Türkiye",40.989703,29.0249348,4.5,463,OPERATIONAL,"establishment, jewelry_store, point_of_interest, store",(0216) 550 03 91,,True,high,jewelry store
ChIJ_ScAZJG5yhQRS7TvwN7amMA,Özyurt Kuyumculuk toptan,"Beyazıt, Molla Fenari, Çuhacı Han Sk. Kapalıçarşı Kapalı Çarşı No:15, 34126 Fatih/İstanbul, Türkiye",41.0110022,28.9696806,4.4,87,OPERATIONAL,"establishment, jewelry_store, point_of_interest, store",(0212) 528 86 86,https://ozyurtkuyumculuk.com/,True,high,jewelry store
ChIJQ0hTwS-3yhQRzh1f970UPAU,Bahtışen Jewelry,"Asmalı Mescit Mahallesi Han Geçidi Sokak No: 3/E, Asmalı Mescit, 34430 Beyoğlu/İstanbul, Türkiye",41.0335535,28.97594549999999,4.7,19,OPERATIONAL,"establishment, jewelry_store, point_of_interest, store",(0212) 243 60 16,,True,low,jewelry store
ChIJzzfSgIy5yhQRUN5vCgDTCuU,Tiara,"Sultan Ahmet, Nakilbent Sk. No: 13, 34122 Fatih/İstanbul, Türkiye",41.00400399999999,28.9750119,4.5,26,OPERATIONAL,"establishment, jewelry_store, point_of_interest, store",(0212) 526 63 63,https://tiarajewellery.com/,True,medium,jewelry store
ChIJW0UHacO3yhQR9LjrEdp0Who,"Linya Jewellery - El yapımı Gümüş, İnci Takı","Etiler, İhsan Aksoy Sk. No:2 Modern Apt. D:21, 34337 Beşiktaş/İstanbul, Türkiye",41.0801323,29.0348547,4.8,27,OPERATIONAL,"establishment, jewelry_store, point_of_interest, store",0542 280 81 42,https://www.linyajewellery.com/,True,medium,jewelry store
ChIJ8wo8gAS6yhQRRSJ9evHz8Ao,Karakedi Koleksiyon,"Ayvansaray, Hızır Çavuş Köprübaşı Sk. No:72, 34087 Fatih/İstanbul, Türkiye",41.0330802,28.9470551,5.0,1,OPERATIONAL,"establishment, home_goods_store, point_of_interest, store",0553 641 78 35,,False,low,antique collection
ChIJc0fCDb65yhQR8K752qQVBP8,Yörük Collection,"Alemdar, Yerebatan Cd. No:25, 34110 Fatih/İstanbul, Türkiye",41.00940070000001,28.9766916,4.6,80,OPERATIONAL,"establishment, home_goods_store, point_of_interest, store",(0212) 528 00 99,http://yoruk.com/,True,high,antique collection
ChIJB0V3d6zHyhQRAsyxdPoYgI4,Vintage Collection,"Caddebostan Mahallesi Yener Sokak Mermersaray Apartmanı No:10B D:10, Caddebostan, 34728 Kadıköy/İstanbul, Türkiye",40.9645142,29.0703384,4.7,15,OPERATIONAL,"electronics_store, establishment, home_goods_store, point_of_interest, store",(0216) 362 00 17,,True,low,antique collection
ChIJPYDZpu25yhQRWkI5BUilsmo,Mamcon Antique Oriental Rugs & Textiles,"Cankurtaran, Utangaç Sk. No:21, 34122 Fatih/İstanbul, Türkiye",41.0059758,28.9792119,5.0,26,OPERATIONAL,"establishment, furniture_store, home_goods_store, point_of_interest, store",0538 832 48 64,https://www.instagram.com/mamconrugs/,True,medium,antique collection
ChIJOaUegl23yhQRIhVbOH_-9PU,Kırkambar,"Bostan, Küçük Odalar Sk. No:9 D:K, 34435 Beyoğlu/İstanbul, Türkiye",41.0390552,28.9757685,5.0,3,OPERATIONAL,"establishment, home_goods_store, point_of_interest, store",0539 747 14 14,,False,low,antique collection
ChIJwxYvx3rYyhQREoFeagox1BM,Enigma Antiques,"Zekeriyaköy Çarşı Yon Vişne 2 Mah. 4 Cad. No:2 A-1/1 Zekeriyaköy Yapikredi bankasının yanında, Zekeriyaköy, 34450 Sarıyer/İstanbul, Türkiye",41.20860589999999,29.02198169999999,5.0,1,OPERATIONAL,"establishment, home_goods_store, point_of_interest, store",0536 288 89 99,,False,low,antique collection
ChIJu00F_BG3yhQRhmVVAyltuzw,CNG Jewels - CNG Silver Osmanbey,"no:114/C 34363, Meşrutiyet, Halaskargazi Cd., 34363 Şişli/İstanbul, Türkiye",41.0551649,28.987294,4.1,29,OPERATIONAL,"establishment, jewelry_store, point_of_interest, store",(0212) 240 67 14,http://www.cngjewels.com/,True,medium,silver goods
ChIJc-6pgxOjyhQRB_Vq4rhgF6U,Casa Fiaa,"Yeşilköy, Şht. Özcan Canik Sk. No:3 D:73B, 34149 Bakırköy/İstanbul, Türkiye",40.9849463,28.8008107,5.0,32,OPERATIONAL,"establishment, point_of_interest, store",0552 543 70 45,https://www.casafiaa.com/,True,medium,silver goods
ChIJi_0ZPVnIyhQRxynTihsrsL8,Gümüş Ayakkabı Malzemeleri,"Atatürk, Bahar Sk. No:6 D:A, 34764 Ümraniye/İstanbul, Türkiye",41.0253136,29.0887896,4.5,42,OPERATIONAL,"establishment, point_of_interest, shoe_store, store",(0216) 461 65 43,,True,medium,silver goods
ChIJZXRdH525yhQRSzGrKJdwxTg,Arto Usta - Nuran Gümüş - Sterling Silver Holloware,"Mercan, Büyük Valide Han, Çakmakçılar Ykş. No:33 - 2. Kat No:84, Mercan, 34116 Fatih/İstanbul, Türkiye",41.0131583,28.9684334,5.0,2,OPERATIONAL,"establishment, home_goods_store, point_of_interest, store",0532 422 22 54,http://www.artousta.com/,False,low,silver goods
ChIJ-0ADDpG5yhQRxNwqAqHFzGY,Cebeci Silver,"Molla Fenari Mahallesi Hüseyinağa Camii Sokak, Beyazıt, İskender Boğazı Sk. No:17/D, 34120 Fatih/İstanbul, Türkiye",41.0096355,28.9680607,5.0,5,OPERATIONAL,"establishment, jewelry_store, point_of_interest, store",0532 365 49 10,,False,low,silver goods
ChIJAXPaL5G5yhQR5_4DJ1NAO3E,Milat Silver Wholesale Silver Men's Ring - Toptan Gümüş Erkek Yüzük,"Atikalipaşa, Molla Fenari, Medrese Sk. No:4/23, 34110 Fatih/İstanbul, Türkiye",41.00888399999999,28.969737,4.6,18,OPERATIONAL,"establishment, jewelry_store, point_of_interest, store",0505 884 13 88,,True,low,silver goods
ChIJfSCRoSe6yhQR_bbpXxH2bS8,HORHOR BITPAZARI FLEA MARKET,"İskenderpaşa, Horhor Cad./kırk Tulumba Sok. No:13, 34080 Fatih/İstanbul, Türkiye",41.0129243,28.951638,4.0,74,OPERATIONAL,"establishment, point_of_interest",,,True,high,antique market
ChIJmS1FIhe3yhQRCGWjTBZ8DPc,Bomonti Bit Pazar,"Cumhuriyet, Düzoğlu Sk. No:6, 34380 Şişli/İstanbul, Türkiye",41.0566617,28.9805549,4.1,384,OPERATIONAL,"establishment, point_of_interest",,,True,high,antique market
ChIJW6mDqWq3yhQReXENu1mtM44,Feriköy Antika Pazarı,"Cumhuriyet, Semt Pazarı No:8, 34380 Şişli/İstanbul, Türkiye",41.0565074,28.9802904,4.2,2113,OPERATIONAL,"establishment, point_of_interest",,http://ferikoyantikapazari.com/,True,high,antique market
ChIJw86H3fy2yhQRRlhkVNtj1gQ,Mecidiyeköy Antikacılar Çarşısı,"Kuştepe, 34387 Şişli/İstanbul, Türkiye",41.068419,28.9892132,4.3,120,OPERATIONAL,"art_gallery, establishment, point_of_interest",,,True,high,antique market
ChIJj2j8EGy4yhQRYmTrvOcUslU,Salı ve Cuma Pazarı,"Hasanpaşa, Uzunçayır Cd., 34722 Kadıköy/İstanbul, Türkiye",40.99785380000001,29.0500067,4.1,3910,OPERATIONAL,"establishment, point_of_interest",,,True,high,antique market
ChIJyXHf32C4yhQReScdDZ_J9cM,Prokopi'nin Eskici dükkanı,"Caferağa, Bademaltı Sk. No:26, 34710 Kadıköy/İstanbul, Türkiye",40.98469,29.0259042,4.3,12,OPERATIONAL,"establishment, home_goods_store, point_of_interest, store",0532 405 44 46,,True,low,antique market
ChIJjfJ4ZGC3yhQRnZiW0uxFfJk,Avrupa Pasajı,"Hüseyinağa, Meşrutiyet Cd. No:8, 34435 Beyoğlu/İstanbul, Türkiye",41.0339043,28.977185,4.5,300,OPERATIONAL,"department_store, establishment, point_of_interest, store",,,True,high,antique market
ChIJR_WhhmO4yhQRisUsPf5y-ac,Ora Etc.,"Ferah Mah Ferahyolu Sok, Ferah, Çamlıca Tepesi yl No:6-4, 34692 Üsküdar/İstanbul, Türkiye",41.0349386,29.0728139,4.8,21,OPERATIONAL,"establishment, home_goods_store, point_of_interest, store",0539 910 90 12,http://www.oraetc.com/,True,medium,antique market
ChIJdSK6NoC9yhQRcwlqwlhd0og,Bakırköy Antikacılar ve Sanatkârlar Çarşısı,"Cevizlik, Hüsreviye Sk. No:16, 34142 Bakırköy/İstanbul, Türkiye",40.9795913,28.8741741,4.0,437,OPERATIONAL,"establishment, home_goods_store, point_of_interest, store",0506 908 45 95,,True,high,antique market
ChIJMwWzume4yhQRKvy_IDb9UYI,SAH Galeri,"Caferağa, Moda Cad. Tellalzade Sok. No:9 D:A, Caferağa, 34710 Kadıköy/İstanbul, Türkiye",40.9894971,29.0255573,4.6,18,OPERATIONAL,"art_gallery, establishment, home_goods_store, point_of_interest, store",,http://www.instagram.com/sahgaleri,True,low,antique market
ChIJMfD2ijDHyhQRuMxYxKJqspo,Kadıköy Antika Pazarı,"Hasanpaşa, Uzunçayır Cd. No:2/34, 34722 Kadıköy/İstanbul, Türkiye",40.9978348,29.0497462,4.0,945,OPERATIONAL,"establishment, point_of_interest",,,True,high,antique market
ChIJK1-GepG5yhQR-yQ5B1-shwA,Cevahir Bedesteni Old Bazaar,"Beyazıt, 34126 Fatih/İstanbul, Türkiye",41.0106625,28.968509,4.6,45,OPERATIONAL,"department_store, establishment, point_of_interest, store",(0212) 526 96 69,,True,medium,antique market
ChIJjfcETO25yhQRRVJFedJy62c,Antika Eşya Alanlar - Antika Alanlar,"Osmanağa, Canan Sk. no 2, 34714 Kadıköy/İstanbul, Türkiye",40.98858440000001,29.0311916,5.0,1,OPERATIONAL,"establishment, home_goods_store, point_of_interest, store",0539 264 70 72,http://kadikoyantikaci.com/,False,low,antique market
ChIJmfIwDQ67yhQRewlRE-b-UCs,istanbul canlı mezat,"Yavuz Sultan Selim, Dr. Sadık Ahmet Cd. no:24/1, 34087 Fatih/İstanbul, Türkiye",41.0287311,28.9524739,5.0,4,OPERATIONAL,"establishment, home_goods_store, point_of_interest, store",0530 881 26 31,https://www.facebook.com/groups/1776399709265338/,False,low,antique market
ChIJcVy7xIu3yhQRdy8qhrBmdSQ,İstanbul Antik - Antika Eşya Alım Satım,"Mimar Sinan, Atlas Çk. 19/A, 34672 Üsküdar/İstanbul, Türkiye",41.0239086,29.0178056,4.2,5,OPERATIONAL,"establishment, furniture_store, home_goods_store, point_of_interest, store",0542 541 06 06,https://www.antika.web.tr/,False,low,antique market
ChIJPUD_4E-nyhQRd-Zc253cADg,Koza Gold Kuyumculuk,"Koza, 1638. Sk. No:2 D:737, 34538 Esenyurt/İstanbul, Türkiye",41.0609902,28.6676803,4.1,30,OPERATIONAL,"establishment, jewelry_store, point_of_interest, store",(0212) 801 87 97,,True,medium,gold silver
ChIJS5EtxinHyhQRvBgip2ZOP1M,Cihangir Gold,"Göztepe, Fahrettin Kerim Gökay Cd Yamaç Ap No:154/C, 34700 Kadıköy/İstanbul, Türkiye",40.9837942,29.0592225,4.8,48,OPERATIONAL,"establishment, jewelry_store, point_of_interest, store",0532 705 07 26,,True,medium,gold silver
ChIJhZ5mZ-HJyhQRJ516hmxBqGo,Yasin Kuyumculuk,"Çamlık, 34774 Ümraniye/İstanbul, Türkiye",41.0009668,29.1238572,4.8,66,OPERATIONAL,"establishment, jewelry_store, point_of_interest, store",(0216) 594 72 35,,True,high,gold silver
ChIJ1S3aE2_JyhQRGJsBMhI9Aro,Kuyumcu Tamircisi Zanaat GOLD,"Atatürk, Atatürk Mah Yeşil Sk Huzur pasajı no 2c, 34764 Ümraniye/İstanbul, Türkiye",41.0248806,29.0926749,4.9,13,OPERATIONAL,"establishment, jewelry_store, point_of_interest, store",0532 589 64 34,,True,low,gold silver
ChIJvSCz9oWwyhQRc6r6shISCdo,Uygun Gold Silver,"29, Merkez, Cumhuriyet Meydanı, 34245 Gaziosmanpaşa/İstanbul, Türkiye",41.0582962,28.9131382,4.3,6,OPERATIONAL,"establishment, jewelry_store, point_of_interest, store",(0212) 497 29 90,,False,low,gold silver
ChIJXdW2Fi6lyhQRTUmknYccVzk,Rahal gold,"Yenibosna Merkez, 34480 Bahçelievler/İstanbul, Türkiye",41.0028326,28.8170662,4.6,9,OPERATIONAL,"establishment, jewelry_store, point_of_interest, store",444 3 699,http://rahalgold.com.tr/,False,low,gold silver
ChIJhVedJZG5yhQRpiLZBeCOa_U,Gümüş Kanat Gold & Silver,"6, Molla Fenari, Kürkçüler Pazarı Sk. No:6, 34120 Fatih/İstanbul, Türkiye",41.0088119,28.9695545,0.0,0,OPERATIONAL,"establishment, jewelry_store, point_of_interest, store",(0212) 526 41 29,,False,low,gold silver
ChIJBzAtmJPHyhQRDf7IITb3YSk,Aras Gold Silver,"Bağlarbaşı, 34844 Maltepe/İstanbul, Türkiye",40.9218081,29.1341577,0.0,0,OPERATIONAL,"establishment, jewelry_store, point_of_interest, store",,,False,low,gold silver
ChIJAcUM3GW5yhQRIhCyL_S68Iw,Santoz Gold,"Kılıçlılar Sokak, Beyazıt, Çuhacı Han Sk. No: 27, 34126 Fatih/İstanbul, Türkiye",41.0110259,28.9696845,4.3,58,OPERATIONAL,"establishment, jewelry_store, point_of_interest, store",0532 380 72 44,,True,high,gold silver
ChIJ864RpgO5yhQR6X7pB0Z5Az8,AKBULUT SİLVER CENTER,"Beyazıt, Katip Sultan Sk., 34126 Fatih/İstanbul, Türkiye",41.0094799,28.96765109999999,4.3,3,OPERATIONAL,"establishment, jewelry_store, point_of_interest, store",0535 572 91 09,,False,low,gold silver
ChIJlXzKpGdftRQRmqwOYpHi5ow,Turkish Jewelry Wholesale Manufacturer Silver & Gold,"Barıs Mah. Fidangör Sok. Lider Apt no15 B-Blok Kat 10 Daire 21, Barış, 34520 Beylikdüzü/İstanbul, Türkiye",41.0015838,28.6488723,3.7,6,OPERATIONAL,"establishment, jewelry_store, point_of_interest, store",0506 141 50 87,https://wholesalerturkishjewelry.com/,False,low,gold silver
ChIJwYmMx7m5yhQRqTHxpcgEdig,Stargold silver,"Emin Sinan, Yeniçeriler Cd. çemberlitaş No 10, 34122 Fatih/İstanbul, Türkiye",41.00862679999999,28.9697919,4.7,3,OPERATIONAL,"establishment, jewelry_store, point_of_interest, store",0532 254 08 27,http://stargold.com.tr/,False,low,gold silver
ChIJ2wOT2U_dyhQRHqagv_nxU68,Akkaya Gold,"Doğu, Değerli Sk No:8/A, 34890 Pendik/İstanbul, Türkiye",40.879527,29.2333628,5.0,8,OPERATIONAL,"establishment, jewelry_store, point_of_interest, store",0533 383 11 61,http://akkayagold.com/,False,low,gold silver
ChIJ_eSmwbtftRQRFJc5U1hrNYg,Gold Silver Gıda ve Pazarlama San. Dış. Tic. Ltd. Şti.,"Ömerli, Efekan Sk. No: 7 İç Kapı No: 3, 34555 Arnavutköy/İstanbul, Türkiye",41.1312214,28.6259904,5.0,2,OPERATIONAL,"establishment, food, point_of_interest",0535 393 99 71,,False,low,gold silver
ChIJg2EIYRe5yhQR5fTXzkN1L5I,Jouel Gold Collection,"Kapaliçarsi, Karamanlıoğlu Sk. No:1-3-5, 34126 Fatih/İstanbul, Türkiye",41.0105556,28.9691042,5.0,56,OPERATIONAL,"establishment, jewelry_store, point_of_interest, store",0532 737 23 45,https://jouelgoldcollection.com/,True,high,gold silver
ChIJxVz46y-wyhQRoZRV315lpws,ONUR GOLD KUYUMCULUK A.Ş.,"50. Yıl, B Cad. No:44/C, 34265 Sultangazi/İstanbul, Türkiye",41.089678,28.8701681,3.9,24,OPERATIONAL,"establishment, jewelry_store, point_of_interest, store",0532 481 99 75,,True,medium,gold silver
ChIJ1WY_AW2jyhQReiN73xs5DZc,İnci Gold - İnci Kuyumculuk A.Ş,"Yenibosna Merkez, Ladin Sk. Kuyumcukent Sitesi Atölye Bloğu No:4 Kat:5/5004, 34197 Bahçelievler/İstanbul, Türkiye",41.003396,28.8153137,3.7,3,OPERATIONAL,"establishment, jewelry_store, point_of_interest, store",(0212) 603 07 19,https://incigold.com/,False,low,gold silver
ChIJu-4K3ofHyhQRg3zzMYIOF7U,Kadıköy Antika Eski Eşya Alım Satım,"Fenerbahçe, Dr. Faruk Ayanoğlu Cd. No: 20/1, 34724 Kadıköy/İstanbul, Türkiye",40.9748613,29.04612909999999,4.5,21,OPERATIONAL,"establishment, home_goods_store, point_of_interest, store",0533 653 19 19,http://www.antika-esya-alanlar.com/,True,medium,antique dealer
ChIJ0WhaTZC5yhQR7ocIyz954lQ,Minyatür Antikacı,"Beyazıt Mah Kapalıçarşı , Cevahir Bedesten No:240, Beyazıt, 34126 Fatih/İstanbul, Türkiye",41.010609,28.9683483,3.8,4,OPERATIONAL,"establishment, home_goods_store, point_of_interest, store",(0212) 526 45 49,,False,low,antique dealer
ChIJjw61AJS5yhQRpOsT7rn3uwQ,Atam Usta,"Molla Fenari, Kılıçcılar Sk. No: 25, 34120 Fatih/İstanbul, Türkiye",41.0108098,28.9703421,5.0,17,OPERATIONAL,"establishment, home_goods_store, point_of_interest, store",(0212) 512 58 54,https://www.atamusta.com/,True,low,antique dealer
ChIJm9zzJnW3yhQRd78rFrPfNx4,Artam Antik A.Ş. Müzayede,"Süleyman Seba Caddesi, Vişnezade, Maçka Talim Yeri Sk. No:2, 34400 Beşiktaş/İstanbul, Türkiye",41.0442717,28.996956,4.6,86,OPERATIONAL,"art_gallery, establishment, home_goods_store, museum, point_of_interest, store",(0212) 236 24 60,https://artam.com/,True,high,antique dealer
ChIJXeLRB6jHyhQRYlws-5D1N3U,Eskiye Dair Concept Shop,"Suadiye, Kaptan Arif Caddesi & Kaptan Arif Sokak 29/1B, 34740 Kadıköy/İstanbul, Türkiye",40.9667004,29.0810566,5.0,3,OPERATIONAL,"establishment, home_goods_store, point_of_interest, store",(0216) 360 10 49,http://www.eskiyedair.com/,False,low,antique dealer
ChIJw-1gVLK5yhQRhsUDf0GWf2s,Ülgen Grup I Della Moor,"Tahtakale, Sabuncu Han Sk No:4, 34116 Fatih/İstanbul, Türkiye",41.0162552,28.9702892,4.8,84,OPERATIONAL,"establishment, point_of_interest, store",0532 359 42 66,http://www.ulgengrup.com/,True,high,precious metals
ChIJewmYupG5yhQRS1SMYMeoMXY,Nadir Metal Rafineri,"Beyazıt, Perdahçılar Sok. Kapalı Çarşı D:16, 34126 Fatih/İstanbul - Avrupa, Türkiye",41.0098,28.9666,3.8,11,OPERATIONAL,"establishment, point_of_interest",(0212) 513 13 95,http://www.nadirmetal.com.tr/,True,low,precious metals
ChIJ3UbPrAXHyhQR07tAUdvZgyQ,Cancri Jewelry,"district, Bagdat Street, Bostancı, Bağdat Cad., 34740 Kadıköy/İstanbul, Türkiye",40.9588398,29.0837693,2.5,216,OPERATIONAL,"establishment, jewelry_store, point_of_interest, store",,,False,low,precious metals
ChIJ2yDaJpS5yhQR431rYv9tTUg,Borsa Gold,"Beyazıt Mahallesi No:9, Mimar Kemalettin, 34000 Fatih/İstanbul, Türkiye",41.00792029999999,28.9589879,4.5,28,OPERATIONAL,"establishment, jewelry_store, point_of_interest, store",(0212) 514 50 30,,True,medium,precious metals
ChIJfUXqBpe5yhQR5RXkATfoF7M,İstanbul Kuyumcular Odası,"Binbirdirek Mahallesi Piyerloti Caddesi &, Binbirdirek, Dostluk Yurdu Sk. No:3, 34122 Fatih/İstanbul, Türkiye",41.0071653,28.9731195,4.1,120,OPERATIONAL,"establishment, point_of_interest",(0212) 516 27 57,https://www.iko.org.tr/,True,high,precious metals
ChIJ6_8UlyC6yhQRFXc2TYi_mlY,Malatyalı Mustafa Akbulu,"Beyazıt, Karamanlı Sok. No:29, 34755 Fatih/İstanbul - Avrupa, Türkiye",41.010633,28.9691045,4.9,13,OPERATIONAL,"establishment, jewelry_store, point_of_interest, store",(0212) 512 16 69,,True,low,precious metals
ChIJ2SD_GHG6yhQRWFbFYXzZkxs,Özuncu Bakır Metal,"Osmangazi, Gazi Cd. No : 7, 34522 Esenyurt/İstanbul, Türkiye",41.0416676,28.6316068,5.0,9,OPERATIONAL,"establishment, point_of_interest",(0212) 493 18 50,http://www.ozuncu.com/,False,low,precious metals
ChIJKa_wDiLGyhQRHbZ2gEM23Yc,Demiray KIYMETLI METAL A.S,"3317 Ada 5 Parsel Finanskent Mahallesi Finans Merkezi Bölgesi, Finanskent, 34770 Ümraniye/İstanbul, Türkiye",41.005041,29.1053048,5.0,1,OPERATIONAL,"establishment, point_of_interest",0541 499 81 71,https://www.demirayas.com/,False,low,precious metals
ChIJtwdAl4SkyhQRDbSSg4RsC2I,Niziplioğlu Kıymetli Madenler San. ve Dış.Tic. A.Ş.,"Beyazıt, Terlikçiler Sk. No:53, 34126, 34126 Fatih/İstanbul, Türkiye",41.0111012,28.9679946,4.2,10,OPERATIONAL,"establishment, point_of_interest",(0212) 511 79 80,http://nzpgold.com/,True,low,precious metals
ChIJn3IoA8RYtRQRqX_K3e5XfZQ,Orjinal Metal Ürünleri San. ve Tic. A.Ş.,"Akçaburgaz, 3124.Sokak No:4, 34522 Esenyurt/İstanbul, Türkiye",41.06160790000001,28.6436817,4.6,21,OPERATIONAL,"establishment, point_of_interest",444 0 450,http://www.orjinalmetal.com/,True,medium,precious metals
ChIJ0XqibQK5yhQRqIG4_YW0728,Emen kıymetli madenler,"Molla Fenari, Gazi Sinan Paşa Sk. No:10, 34120 Fatih/İstanbul, Türkiye",41.0097802,28.9722256,3.0,1,OPERATIONAL,"establishment, jewelry_store, point_of_interest, store",,http://www.emengold.com/,False,low,precious metals
ChIJ8zLEfDu5yhQRl6EvzHgknNM,ARAZ KIYMETLİ MADENLER TİC A.Ş,"Beyazıt, Güllaç Sk. No:8, 34126 Fatih/İstanbul, Türkiye",41.01031210000001,28.9690262,5.0,9,OPERATIONAL,"establishment, jewelry_store, point_of_interest, store",(0212) 520 53 53,https://www.arazgold.com/,False,low,precious metals
ChIJvypVfuy2yhQRnAkiGx-XDJk,Fulcrum Precious Metals,"Merkez, Ayazma Cad. No:37, 34406 Kağıthane/İstanbul, Türkiye",41.0835314,28.9821554,0.0,0,OPERATIONAL,"establishment, point_of_interest",(0212) 253 49 54,http://www.fulcrum.com.tr/Contact,False,low,precious metals
ChIJIwb7uIHHyhQRyq2pWCjFxdk,Our Metals,"Fenerbahçe, Bağdat Cad. No.168 K:2, D:8, 34726 Kadıköy/İstanbul, Türkiye",40.9760234,29.0498463,0.0,0,OPERATIONAL,"establishment, finance, point_of_interest",(0216) 408 23 23,http://ourmetals.in/,False,low,precious metals
ChIJIZrQe4ukyhQRTQhHynTukGo,SELIMIYE FOREIGN TRADE,"Beyaz Residence, Yenibosna Merkez, 29 Ekim Cd. No:43/26, 34197 Bahçelievler/İstanbul, Türkiye",41.017542,28.8183916,1.0,1,OPERATIONAL,"establishment, point_of_interest",(0212) 653 54 53,http://selimiyeimport.com/,False,low,precious metals
ChIJcz_CO8i6yhQRdSCCHejjfOQ,ser kıymetli madenler,"Fatih, 212. Sk. No:90, 34225 Esenler/İstanbul, Türkiye",41.0418548,28.8694461,0.0,0,OPERATIONAL,"establishment, point_of_interest, store",(0212) 522 93 09,,False,low,precious metals
ChIJe8-jW4m3yhQR440ttzUHjCI,Kuyumcu EMRE,"Mimar Sinan, Atlas Sk. Balıkçılar Çarşısı No:15/B, 34672 Üsküdar/İstanbul, Türkiye",41.0248873,29.0163823,4.7,22,OPERATIONAL,"establishment, jewelry_store, point_of_interest, store",(0216) 492 98 40,http://www.altincesit.com/,True,medium,precious metals
ChIJCZnww-K5yhQRcK5b6qS-z4k,Marmara Kuyumculuk,"Molla Fenari, Selvili Mescit Sk. no:8 kat:3, 34120 Fatih/İstanbul, Türkiye",41.010871,28.9732,0.0,0,OPERATIONAL,"establishment, jewelry_store, point_of_interest, store",(0212) 522 86 19,http://www.marmarakuyumculuk.com/,False,low,precious metals
ChIJJXpdksjJyhQRkWCn29P1KeE,Antik Center,"elmalıkent mahallesi eşref bitlis caddesi, Elmalıkent, Nardalı Sk. no:14, 34764 Ümraniye/İstanbul, Türkiye",41.0379389,29.0986781,4.7,16,OPERATIONAL,"establishment, home_goods_store, point_of_interest, store",0536 748 84 75,,True,low,antique center
ChIJu6cIZwDJyhQRcJ3e0d2MI1U,Antik Center Merkez,"Elmalıkent, Şht. Serdar Eyüpoğlu Cd. No:7, 34764 Ümraniye/İstanbul, Türkiye",41.0389323,29.0967601,5.0,5,OPERATIONAL,"establishment, point_of_interest, store",0536 748 84 75,,False,low,antique center
ChIJYWnKh_W3yhQRJZi1Ks788l8,Nold Eatery,"Firuzağa, Çukur Cuma Cd. No:52B, 34425 Beyoğlu/İstanbul, Türkiye",41.0319823,28.9809328,4.6,189,OPERATIONAL,"cafe, establishment, food, point_of_interest",0530 066 58 81,http://www.cukurcumaantiquescafe.com/,True,high,antique center
ChIJbRITDXyjyhQRFcESFeDD-0w,Airport Outlet Center,"Londra Asfaltı E-5 Karayolu Üzeri, Ataköy 7-8-9-10. Kısım, Airport AVM, 34158 Bakırköy/İstanbul, Türkiye",40.9914364,28.8306645,3.8,7299,OPERATIONAL,"establishment, point_of_interest, shopping_mall",(0212) 465 85 75,http://www.airportavm.com.tr/,True,medium,antique center
ChIJ_5YryGe4yhQRzzrFkCnzpIM,ÜNAL MÜZAYEDE EVİ,"Efes Çarşısı, Osmanağa, Kuşdili Cd. No:12/96, 34714 Kadıköy/İstanbul, Türkiye",40.9896344,29.0308541,4.2,121,OPERATIONAL,"establishment, furniture_store, home_goods_store, point_of_interest, store",0539 205 29 26,http://www.muzayedevi.com/,True,high,antique center
